latitude,longitude,name
-45.878760,170.502798,Dunedin Office
-41.286460,174.776236,Wellington Office
-46.098799,168.945819,Gore Office
-46.413187,168.353773,Invercargill Office
-35.117330, 173.267559,Kaitai Office
